[{"address":"567 Beacon Lane","approximate":false,"city":"Nurtureville","country":"US","day":0,"location":"Guiding Schoolhouse","name":"Broken Meeting No.1","notes":null,"postal_code":"89007","region":"Statestown AA (Demonstration Webite)","slug":"broken-test-1-Sunday-19:00","state":"NV","time":"19:00","timezone":"America/Los_Angeles","types":["EN","C","B"],"url":"https://aamod-demo.recoverysource.net//meetings/broken-test-1"},{"address":"567 Beacon Lane","approximate":false,"city":"Nurtureville","country":"US","day":4,"location":"Guiding Schoolhouse","name":"Broken Meeting No.1","notes":null,"postal_code":"89007","region":"Statestown AA (Demonstration Webite)","slug":"broken-test-1-Thursday-12:00","state":"NV","time":"12:00","timezone":"America/Los_Angeles","types":["EN","C","B"],"url":"https://aamod-demo.recoverysource.net//meetings/broken-test-1"},{"address":"","approximate":false,"city":"","country":"US","day":5,"location":"Zoom-Only","name":"GenZoom Recovery","notes":"We meet daily for quick and short meetings to help each other through the work day.\n<b>Zoom:</b> https://us02web.zoom.us/j/123456789\n<b>Meeting:</b> 123-456-789 <b>Password:</b> <none>\n","postal_code":"","region":"Statestown AA (Demonstration Webite)","slug":"genzoom-Friday-07:50","state":"","time":"07:50","timezone":"America/Los_Angeles","types":["EN","O","SP"],"url":"https://aamod-demo.recoverysource.net//meetings/genzoom"},{"address":"","approximate":false,"city":"","country":"US","day":5,"location":"Zoom-Only","name":"GenZoom Recovery","notes":"We meet daily for quick and short meetings to help each other through the work day.\n<b>Zoom:</b> https://us02web.zoom.us/j/123456789\n<b>Meeting:</b> 123-456-789 <b>Password:</b> <none>\n","postal_code":"","region":"Statestown AA (Demonstration Webite)","slug":"genzoom-Friday-12:00","state":"","time":"12:00","timezone":"America/Los_Angeles","types":["EN","O","SP"],"url":"https://aamod-demo.recoverysource.net//meetings/genzoom"},{"address":"","approximate":false,"city":"","country":"US","day":6,"location":"Zoom-Only","name":"GenZoom Recovery","notes":"We meet daily for quick and short meetings to help each other through the work day.\n<b>Zoom:</b> https://us02web.zoom.us/j/123456789\n<b>Meeting:</b> 123-456-789 <b>Password:</b> <none>\n","postal_code":"","region":"Statestown AA (Demonstration Webite)","slug":"genzoom-Saturday-07:50","state":"","time":"07:50","timezone":"America/Los_Angeles","types":["EN","O","SP"],"url":"https://aamod-demo.recoverysource.net//meetings/genzoom"},{"address":"","approximate":false,"city":"","country":"US","day":6,"location":"Zoom-Only","name":"GenZoom Recovery","notes":"We meet daily for quick and short meetings to help each other through the work day.\n<b>Zoom:</b> https://us02web.zoom.us/j/123456789\n<b>Meeting:</b> 123-456-789 <b>Password:</b> <none>\n","postal_code":"","region":"Statestown AA (Demonstration Webite)","slug":"genzoom-Saturday-12:00","state":"","time":"12:00","timezone":"America/Los_Angeles","types":["EN","O","SP"],"url":"https://aamod-demo.recoverysource.net//meetings/genzoom"},{"address":"","approximate":false,"city":"","country":"US","day":0,"location":"Zoom-Only","name":"GenZoom Recovery","notes":"We meet daily for quick and short meetings to help each other through the work day.\n<b>Zoom:</b> https://us02web.zoom.us/j/123456789\n<b>Meeting:</b> 123-456-789 <b>Password:</b> <none>\n","postal_code":"","region":"Statestown AA (Demonstration Webite)","slug":"genzoom-Sunday-12:00","state":"","time":"12:00","timezone":"America/Los_Angeles","types":["EN","O","SP"],"url":"https://aamod-demo.recoverysource.net//meetings/genzoom"},{"address":"","approximate":false,"city":"","country":"US","day":4,"location":"Zoom-Only","name":"GenZoom Recovery","notes":"We meet daily for quick and short meetings to help each other through the work day.\n<b>Zoom:</b> https://us02web.zoom.us/j/123456789\n<b>Meeting:</b> 123-456-789 <b>Password:</b> <none>\n","postal_code":"","region":"Statestown AA (Demonstration Webite)","slug":"genzoom-Thursday-07:50","state":"","time":"07:50","timezone":"America/Los_Angeles","types":["EN","O","SP"],"url":"https://aamod-demo.recoverysource.net//meetings/genzoom"},{"address":"","approximate":false,"city":"","country":"US","day":4,"location":"Zoom-Only","name":"GenZoom Recovery","notes":"We meet daily for quick and short meetings to help each other through the work day.\n<b>Zoom:</b> https://us02web.zoom.us/j/123456789\n<b>Meeting:</b> 123-456-789 <b>Password:</b> <none>\n","postal_code":"","region":"Statestown AA (Demonstration Webite)","slug":"genzoom-Thursday-12:00","state":"","time":"12:00","timezone":"America/Los_Angeles","types":["EN","O","SP"],"url":"https://aamod-demo.recoverysource.net//meetings/genzoom"},{"address":"","approximate":false,"city":"","country":"US","day":2,"location":"Zoom-Only","name":"GenZoom Recovery","notes":"We meet daily for quick and short meetings to help each other through the work day.\n<b>Zoom:</b> https://us02web.zoom.us/j/123456789\n<b>Meeting:</b> 123-456-789 <b>Password:</b> <none>\n","postal_code":"","region":"Statestown AA (Demonstration Webite)","slug":"genzoom-Tuesday-07:50","state":"","time":"07:50","timezone":"America/Los_Angeles","types":["EN","O","SP"],"url":"https://aamod-demo.recoverysource.net//meetings/genzoom"},{"address":"","approximate":false,"city":"","country":"US","day":2,"location":"Zoom-Only","name":"GenZoom Recovery","notes":"We meet daily for quick and short meetings to help each other through the work day.\n<b>Zoom:</b> https://us02web.zoom.us/j/123456789\n<b>Meeting:</b> 123-456-789 <b>Password:</b> <none>\n","postal_code":"","region":"Statestown AA (Demonstration Webite)","slug":"genzoom-Tuesday-12:00","state":"","time":"12:00","timezone":"America/Los_Angeles","types":["EN","O","SP"],"url":"https://aamod-demo.recoverysource.net//meetings/genzoom"},{"address":"","approximate":false,"city":"","country":"US","day":3,"location":"Zoom-Only","name":"GenZoom Recovery","notes":"We meet daily for quick and short meetings to help each other through the work day.\n<b>Zoom:</b> https://us02web.zoom.us/j/123456789\n<b>Meeting:</b> 123-456-789 <b>Password:</b> <none>\n","postal_code":"","region":"Statestown AA (Demonstration Webite)","slug":"genzoom-Wednesday-07:50","state":"","time":"07:50","timezone":"America/Los_Angeles","types":["EN","O","SP"],"url":"https://aamod-demo.recoverysource.net//meetings/genzoom"},{"address":"","approximate":false,"city":"","country":"US","day":3,"location":"Zoom-Only","name":"GenZoom Recovery","notes":"We meet daily for quick and short meetings to help each other through the work day.\n<b>Zoom:</b> https://us02web.zoom.us/j/123456789\n<b>Meeting:</b> 123-456-789 <b>Password:</b> <none>\n","postal_code":"","region":"Statestown AA (Demonstration Webite)","slug":"genzoom-Wednesday-12:00","state":"","time":"12:00","timezone":"America/Los_Angeles","types":["EN","O","SP"],"url":"https://aamod-demo.recoverysource.net//meetings/genzoom"},{"address":"987 Serene Road","approximate":false,"city":"Embraceville","country":"US","day":0,"location":"Tranquil Mansion","name":"Healing Echoes Group","notes":null,"postal_code":"89004","region":"Statestown AA (Demonstration Webite)","slug":"healingechoes-Sunday-20:00","state":"NV","time":"20:00","timezone":"America/Los_Angeles","types":["EN","O","B"],"url":"https://aamod-demo.recoverysource.net//meetings/healingechoes"},{"address":"987 Serene Road","approximate":false,"city":"Embraceville","country":"US","day":4,"location":"Tranquil Mansion","name":"Healing Echoes Group","notes":null,"postal_code":"89004","region":"Statestown AA (Demonstration Webite)","slug":"healingechoes-Thursday-20:00","state":"NV","time":"20:00","timezone":"America/Los_Angeles","types":["EN","O","B"],"url":"https://aamod-demo.recoverysource.net//meetings/healingechoes"},{"address":"456 Courage Avenue","approximate":false,"city":"Upliftburg","country":"US","day":5,"location":"Harmony House","name":"Hopeful Hearts Group","notes":null,"postal_code":"89004","region":"Statestown AA (Demonstration Webite)","slug":"hopefulhearts-Friday-20:00","state":"NV","time":"20:00","timezone":"America/Los_Angeles","types":["EN","C","ST","D"],"url":"https://aamod-demo.recoverysource.net//meetings/hopefulhearts"},{"address":"456 Courage Avenue","approximate":false,"city":"Upliftburg","country":"US","day":2,"location":"Harmony House","name":"Hopeful Hearts Group","notes":null,"postal_code":"89004","region":"Statestown AA (Demonstration Webite)","slug":"hopefulhearts-Tuesday-20:00","state":"NV","time":"20:00","timezone":"America/Los_Angeles","types":["EN","C","ST","D"],"url":"https://aamod-demo.recoverysource.net//meetings/hopefulhearts"},{"address":"543 Hope Lane","approximate":false,"city":"Harmonyburg","country":"US","day":6,"location":"Renewal Church Hall","name":"Inspiring Journey AA","notes":null,"postal_code":"89004","region":"Statestown AA (Demonstration Webite)","slug":"inspiringjourney-Saturday-10:00","state":"NV","time":"10:00","timezone":"America/Chicago","types":["EN","O","12x12","X"],"url":"https://aamod-demo.recoverysource.net//meetings/inspiringjourney"},{"address":"543 Hope Lane","approximate":false,"city":"Harmonyburg","country":"US","day":2,"location":"Renewal Church Hall","name":"Inspiring Journey AA","notes":null,"postal_code":"89004","region":"Statestown AA (Demonstration Webite)","slug":"inspiringjourney-Tuesday-19:00","state":"NV","time":"19:00","timezone":"America/Chicago","types":["EN","O","12x12","X"],"url":"https://aamod-demo.recoverysource.net//meetings/inspiringjourney"},{"address":"987 Serene Road","approximate":false,"city":"Embraceville","country":"US","day":0,"location":"Tranquil Mansion","name":"Night Owls","notes":null,"postal_code":"89004","region":"Statestown AA (Demonstration Webite)","slug":"night-owls-Sunday-00:00","state":"NV","time":"00:00","timezone":"America/Los_Angeles","types":["EN","O","B"],"url":"https://aamod-demo.recoverysource.net//meetings/night-owls"},{"address":"789 Restoration Plaza","approximate":false,"city":"Riseville","country":"US","day":6,"location":null,"name":"Rebirth Connections AA","notes":null,"postal_code":"89004","region":"Statestown AA (Demonstration Webite)","slug":"rebirthconnections-Saturday-11:00","state":"NV","time":"11:00","timezone":"America/Los_Angeles","types":["EN","C","B","X"],"url":"https://aamod-demo.recoverysource.net//meetings/rebirthconnections"},{"address":"789 Restoration Plaza","approximate":false,"city":"Riseville","country":"US","day":3,"location":null,"name":"Rebirth Connections AA","notes":null,"postal_code":"89004","region":"Statestown AA (Demonstration Webite)","slug":"rebirthconnections-Wednesday-20:00","state":"NV","time":"20:00","timezone":"America/Los_Angeles","types":["EN","C","B","X"],"url":"https://aamod-demo.recoverysource.net//meetings/rebirthconnections"},{"address":"234 Progress Lane","approximate":false,"city":"Reviveburg","country":"US","day":0,"location":"Empowerment Warehouse","name":"Renewed Hope Group","notes":null,"postal_code":"89006","region":"Statestown AA (Demonstration Webite)","slug":"renewedhope-Sunday-20:00","state":"NV","time":"20:00","timezone":"America/Los_Angeles","types":["EN","O","B","X"],"url":"https://aamod-demo.recoverysource.net//meetings/renewedhope"},{"address":"234 Progress Lane","approximate":false,"city":"Reviveburg","country":"US","day":4,"location":"Empowerment Warehouse","name":"Renewed Hope Group","notes":null,"postal_code":"89006","region":"Statestown AA (Demonstration Webite)","slug":"renewedhope-Thursday-19:00","state":"NV","time":"19:00","timezone":"America/Los_Angeles","types":["EN","O","B","X"],"url":"https://aamod-demo.recoverysource.net//meetings/renewedhope"},{"address":"234 Progress Lane","approximate":false,"city":"Reviveburg","country":"US","day":2,"location":"Empowerment Warehouse","name":"Renewed Hope Group - Ally Meeting","notes":null,"postal_code":"89006","region":"Statestown AA (Demonstration Webite)","slug":"renewedhope-ally-Tuesday-10:00","state":"NV","time":"10:00","timezone":"America/Los_Angeles","types":["EN","C","12x12","G","LGBTQ"],"url":"https://aamod-demo.recoverysource.net//meetings/renewedhope-ally"},{"address":"234 Progress Lane","approximate":false,"city":"Reviveburg","country":"US","day":3,"location":"Empowerment Warehouse","name":"Renewed Hope Group for Women","notes":"Test Characters: ', \", &, %, $, _, !, #, ^, {, }, ~","postal_code":"89006","region":"Statestown AA (Demonstration Webite)","slug":"renewedhope-women-Wednesday-20:00","state":"NV","time":"20:00","timezone":"America/Los_Angeles","types":["EN","C","B","X","BA"],"url":"https://aamod-demo.recoverysource.net//meetings/renewedhope-women"},{"address":"721 S Moapa Valley Blvd","approximate":false,"city":"Overton","country":"US","day":5,"location":"Unity Community Center","name":"Rising Together AA","notes":"Some demonstration note.","postal_code":"89040","region":"Statestown AA (Demonstration Webite)","slug":"risingtogether-Friday-19:00","state":"NV","time":"19:00","timezone":"America/Los_Angeles","types":["EN","C","B"],"url":"https://aamod-demo.recoverysource.net//meetings/risingtogether"},{"address":"721 S Moapa Valley Blvd","approximate":false,"city":"Overton","country":"US","day":3,"location":"Unity Community Center","name":"Rising Together AA","notes":"Some demonstration note.","postal_code":"89040","region":"Statestown AA (Demonstration Webite)","slug":"risingtogether-Wednesday-19:00","state":"NV","time":"19:00","timezone":"America/Los_Angeles","types":["EN","C","B"],"url":"https://aamod-demo.recoverysource.net//meetings/risingtogether"},{"address":"345 Ascend Street","approximate":false,"city":"Serenity Springs","country":"US","day":6,"location":"Harmony Church","name":"Serenity Path AA","notes":null,"postal_code":"89007","region":"Statestown AA (Demonstration Webite)","slug":"transcendentpath-Saturday-19:00","state":"NV","time":"19:00","timezone":"America/Los_Angeles","types":["EN","O","B","12x12","X","BA"],"url":"https://aamod-demo.recoverysource.net//meetings/transcendentpath"},{"address":"345 Ascend Street","approximate":false,"city":"Serenity Springs","country":"US","day":0,"location":"Harmony Church","name":"Serenity Path AA","notes":null,"postal_code":"89007","region":"Statestown AA (Demonstration Webite)","slug":"transcendentpath-Sunday-10:00","state":"NV","time":"10:00","timezone":"America/Los_Angeles","types":["EN","O","B","12x12","X","BA"],"url":"https://aamod-demo.recoverysource.net//meetings/transcendentpath"},{"address":"345 Ascend Street","approximate":false,"city":"Serenity Springs","country":"US","day":0,"location":"Harmony Church","name":"Serenity Path AA","notes":null,"postal_code":"89007","region":"Statestown AA (Demonstration Webite)","slug":"transcendentpath-Sunday-19:00","state":"NV","time":"19:00","timezone":"America/Los_Angeles","types":["EN","O","B","12x12","X","BA"],"url":"https://aamod-demo.recoverysource.net//meetings/transcendentpath"}]